 {"id" : 21207, "naziv" : "Autobusni kolodvor", "adresa" : "Trg Luke Botica 1", "kapacitet" : 16, "geo_lat" : 45.804, "geo_lon" : 15.994, "aktivna" : true, "datum_posljednje_aktivnosti" : "2025-10-26", "bicikli" : []}
 {"id" : 21220, "naziv" : "Green gold", "adresa" : "Radnicka cesta 50", "kapacitet" : 20, "geo_lat" : 45.803, "geo_lon" : 16.002, "aktivna" : true, "datum_posljednje_aktivnosti" : "2025-10-26", "bicikli" : []}
 {"id" : 21235, "naziv" : "Nacionalna i sveucilisna knjiznica", "adresa" : "Ulica Hrvatske bratske zajednice 4", "kapacitet" : 20, "geo_lat" : 45.797, "geo_lon" : 15.978, "aktivna" : true, "datum_posljednje_aktivnosti" : "2025-10-26", "bicikli" : []}
 {"id" : 21237, "naziv" : "Arena Zagreb", "adresa" : "Ulica Vice Vukova 6", "kapacitet" : 16, "geo_lat" : 45.77, "geo_lon" : 15.935, "aktivna" : true, "datum_posljednje_aktivnosti" : "2025-10-19", "bicikli" : []}
 {"id" : 21267, "naziv" : "Kruge", "adresa" : "Kruge 5", "kapacitet" : 10, "geo_lat" : 45.798, "geo_lon" : 15.987, "aktivna" : true, "datum_posljednje_aktivnosti" : "2025-10-26", "bicikli" : []}
 {"id" : 21268, "naziv" : "SC Trnje", "adresa" : "Ulica grada Vukovara 236D", "kapacitet" : 10, "geo_lat" : 45.798, "geo_lon" : 15.993, "aktivna" : true, "datum_posljednje_aktivnosti" : "2025-10-26", "bicikli" : []}
 {"id" : 21269, "naziv" : "TC Savica", "adresa" : "Lastovska ulica 2A", "kapacitet" : 10, "geo_lat" : 45.794, "geo_lon" : 15.977, "aktivna" : true, "datum_posljednje_aktivnosti" : "2025-10-26", "bicikli" : [{"id" : 800187, "status" : "dostupan", "tip" : "Smartbike 2.0 armiert", "zadnje_koristenje" : "2025-10-25"}, {"id" : 800252, "status" : "iznajmljen", "tip" : "Smartbike 2.0 armiert", "zadnje_koristenje" : "2025-10-24"}, {"id" : 800264, "status" : "dostupan", "tip" : "Smartbike 2.0 armiert", "zadnje_koristenje" : "2025-10-25"}, {"id" : 800312, "status" : "dostupan", "tip" : "Smartbike 2.0 armiert", "zadnje_koristenje" : "2025-10-25"}, {"id" : 800324, "status" : "servis", "tip" : "Smartbike 2.0 armiert", "zadnje_koristenje" : "2025-10-22"}, {"id" : 800432, "status" : "iznajmljen", "tip" : "Smartbike 2.0 armiert", "zadnje_koristenje" : "2025-10-24"}, {"id" : 800485, "status" : "dostupan", "tip" : "Bicikl s djecjom sjedalicom", "zadnje_koristenje" : "2025-10-25"}]}
 {"id" : 21282, "naziv" : "Ulica grada Chicaga", "adresa" : "Ulica grada Chicaga", "kapacitet" : 10, "geo_lat" : 45.786, "geo_lon" : 16.006, "aktivna" : true, "datum_posljednje_aktivnosti" : "2025-10-26", "bicikli" : []}
 {"id" : 21313, "naziv" : "Lastovska ulica", "adresa" : "Lastovska ulica 38", "kapacitet" : 10, "geo_lat" : 45.791, "geo_lon" : 15.999, "aktivna" : true, "datum_posljednje_aktivnosti" : "2025-10-26", "bicikli" : []}
 {"id" : 21316, "naziv" : "Ulica Milke Trnina", "adresa" : "Ulica Milke Trnina 11a", "kapacitet" : 10, "geo_lat" : 45.793, "geo_lon" : 16.005, "aktivna" : true, "datum_posljednje_aktivnosti" : "2025-10-26", "bicikli" : []}

